[
  {"name": "RED_SQUARE", "displayName": "Red Square, St. Gallen, Switzerland", "lng": 9.37327, "lat": 47.42214, "title": true},
  {"name": "GOLLUMS", "displayName": "Gollums, Zürich, Switzerland", "lng": 8.5952, "lat": 47.362, "title": false},
  {"name": "EIFFEL_TOWER", "displayName": "Eiffel Tower, Paris, France", "lng": 2.29486, "lat": 48.85824, "title": true},
  {"name": "PRIME_TOWER", "displayName": "Prime Tower, Zürich, Switzerland", "lng": 8.51831, "lat": 47.38673, "title": false},
  {"name": "GIZA_PLATEAU", "displayName": "Giza Plateau, Giza, Egypt", "lng": 31.132, "lat": 29.978, "title": true},
  {"name": "GROUND_ZERO", "displayName": "Ground Zero, New York, USA", "lng": -74.0123, "lat": 40.7125, "title": true},
  {"name": "RED_SQUARE_MOSCOW", "displayName": "Red Square, Moscow, Russia", "lng": 37.6205, "lat": 55.754, "title": true},
  {"name": "TIMES_SQUARE", "displayName": "Times Square, New York, USA", "lng": -73.9855, "lat": 40.758, "title": true},
  {"name": "SHIBUYA", "displayName": "Shibuya Crossing, Tokyo, Japan", "lng": 139.70054, "lat": 35.6595, "title": true},
  {"name": "PICCADILLY", "displayName": "Piccadilly Circus, London, UK", "lng": -0.1342, "lat": 51.50986, "title": true},
  {"name": "BRANDENBURG_GATE", "displayName": "Brandenburg Gate, Berlin, Germany", "lng": 13.3777, "lat": 52.5163, "title": true},
  {"name": "COLOSSEUM", "displayName": "Colosseum, Rome, Italy", "lng": 12.4922, "lat": 41.8902, "title": false},
  {"name": "DAM_SQUARE", "displayName": "Dam Square, Amsterdam, Netherlands", "lng": 4.8932, "lat": 52.3731, "title": true},
  {"name": "PLAZA_MAYOR", "displayName": "Plaza Mayor, Madrid, Spain", "lng": -3.7074, "lat": 40.4155, "title": true},
  {"name": "GRAND_BAZAAR", "displayName": "Grand Bazaar, Istanbul, Turkey", "lng": 28.968, "lat": 41.0106, "title": true},
  {"name": "TOWER_BRIDGE", "displayName": "Tower Bridge, London, UK", "lng": -0.0754, "lat": 51.5055, "title": false},
  {"name": "BROOKLYN_BRIDGE", "displayName": "Brooklyn Bridge, New York, USA", "lng": -73.9969, "lat": 40.7061, "title": false},
  {"name": "GOLDEN_GATE", "displayName": "Golden Gate Bridge, San Francisco, USA", "lng": -122.4783, "lat": 37.8199, "title": false},
  {"name": "RIALTO", "displayName": "Rialto Bridge, Venice, Italy", "lng": 12.3358, "lat": 45.438, "title": false},
  {"name": "CHARLES_BRIDGE", "displayName": "Charles Bridge, Prague, Czechia", "lng": 14.4113, "lat": 50.0865, "title": false},
  {"name": "PONTE_VECCHIO", "displayName": "Ponte Vecchio, Florence, Italy", "lng": 11.2531, "lat": 43.768, "title": false},
  {"name": "SYDNEY_HARBOUR", "displayName": "Sydney Harbour Bridge, Sydney, Australia", "lng": 151.2108, "lat": -33.8523, "title": false},
  {"name": "MARINA_BAY", "displayName": "Marina Bay, Singapore", "lng": 103.8607, "lat": 1.2834, "title": false},
  {"name": "TIANANMEN", "displayName": "Tiananmen Square, Beijing, China", "lng": 116.3975, "lat": 39.9087, "title": true},
  {"name": "CONCORDE", "displayName": "Place de la Concorde, Paris, France", "lng": 2.3216, "lat": 48.8655, "title": true},
  {"name": "ST_PETERS", "displayName": "St. Peter's Square, Vatican City", "lng": 12.4539, "lat": 41.9022, "title": false},
  {"name": "TRAFALGAR", "displayName": "Trafalgar Square, London, UK", "lng": -0.1276, "lat": 51.508, "title": true},
  {"name": "SAN_MARCO", "displayName": "Piazza San Marco, Venice, Italy", "lng": 12.3389, "lat": 45.4343, "title": false},
  {"name": "GRAND_PLACE", "displayName": "Grand Place, Brussels, Belgium", "lng": 4.3524, "lat": 50.8467, "title": false},
  {"name": "FEDERATION_SQUARE", "displayName": "Federation Square, Melbourne, Australia", "lng": 144.9694, "lat": -37.8178, "title": false},
  {"name": "TAHRIR", "displayName": "Tahrir Square, Cairo, Egypt", "lng": 31.2339, "lat": 30.0444, "title": false},
  {"name": "ZOCALO", "displayName": "Zócalo, Mexico City, Mexico", "lng": -99.1332, "lat": 19.4326, "title": true},
  {"name": "CATALUNYA", "displayName": "Plaça de Catalunya, Barcelona, Spain", "lng": 2.1686, "lat": 41.3874, "title": true},
  {"name": "DUOMO_FLORENCE", "displayName": "Piazza del Duomo, Florence, Italy", "lng": 11.2554, "lat": 43.7731, "title": false},
  {"name": "NAVONA", "displayName": "Piazza Navona, Rome, Italy", "lng": 12.4731, "lat": 41.8992, "title": false},
  {"name": "CHAMPS_ELYSEES", "displayName": "Champs-Élysées, Paris, France", "lng": 2.295, "lat": 48.8738, "title": true},
  {"name": "LA_RAMBLA", "displayName": "La Rambla, Barcelona, Spain", "lng": 2.1734, "lat": 41.3809, "title": false},
  {"name": "STROGET", "displayName": "Strøget, Copenhagen, Denmark", "lng": 12.5683, "lat": 55.6761, "title": false},
  {"name": "PEOPLES_SQUARE", "displayName": "People's Square, Shanghai, China", "lng": 121.4737, "lat": 31.2304, "title": false},
  {"name": "PLAZA_DE_MAYO", "displayName": "Plaza de Mayo, Buenos Aires, Argentina", "lng": -58.3731, "lat": -34.6037, "title": false},
  {"name": "SYNTAGMA", "displayName": "Syntagma Square, Athens, Greece", "lng": 23.7275, "lat": 37.9755, "title": false},
  {"name": "NATHAN_PHILLIPS", "displayName": "Nathan Phillips Square, Toronto, Canada", "lng": -79.3872, "lat": 43.6532, "title": false},
  {"name": "RYNEK_KRAKOW", "displayName": "Old Town Square, Kraków, Poland", "lng": 19.9368, "lat": 50.0614, "title": false},
  {"name": "SENATE_SQUARE", "displayName": "Senate Square, Helsinki, Finland", "lng": 24.9527, "lat": 60.1695, "title": false},
  {"name": "JEMAA_EL_FNAA", "displayName": "Jemaa el-Fnaa, Marrakech, Morocco", "lng": -7.9891, "lat": 31.6258, "title": false},
  {"name": "STORTORGET", "displayName": "Stortorget, Stockholm, Sweden", "lng": 18.0716, "lat": 59.3258, "title": false},
  {"name": "GENDARMENMARKT", "displayName": "Gendarmenmarkt, Berlin, Germany", "lng": 13.3936, "lat": 52.5136, "title": false},
  {"name": "WENCESLAS", "displayName": "Wenceslas Square, Prague, Czechia", "lng": 14.4265, "lat": 50.0812, "title": false},
  {"name": "DUOMO_MILAN", "displayName": "Duomo Square, Milan, Italy", "lng": 9.1917, "lat": 45.4641, "title": true},
  {"name": "PLACE_STANISLAS", "displayName": "Place Stanislas, Nancy, France", "lng": 6.1844, "lat": 48.6931, "title": false},
  {"name": "CAMPO_SIENA", "displayName": "Piazza del Campo, Siena, Italy", "lng": 11.332, "lat": 43.3188, "title": false},
  {"name": "COMERCIO_LISBON", "displayName": "Praça do Comércio, Lisbon, Portugal", "lng": -9.1366, "lat": 38.7069, "title": false},
  {"name": "PONT_ALEXANDRE", "displayName": "Pont Alexandre III, Paris, France", "lng": 2.3128, "lat": 48.8638, "title": false},
  {"name": "PONT_DES_ARTS", "displayName": "Pont des Arts, Paris, France", "lng": 2.3373, "lat": 48.8585, "title": false},
  {"name": "PONT_NEUF", "displayName": "Pont Neuf, Paris, France", "lng": 2.3406, "lat": 48.8581, "title": false},
  {"name": "PONT_ALMA", "displayName": "Pont de l'Alma, Paris, France", "lng": 2.3022, "lat": 48.8644, "title": false},
  {"name": "MILLAU", "displayName": "Millau Viaduct, Millau, France", "lng": 3.0211, "lat": 44.0833, "title": false},
  {"name": "LONDON_BRIDGE", "displayName": "London Bridge, London, UK", "lng": -0.0866, "lat": 51.5078, "title": false},
  {"name": "WESTMINSTER_BRIDGE", "displayName": "Westminster Bridge, London, UK", "lng": -0.1214, "lat": 51.501, "title": false},
  {"name": "MILLENNIUM_BRIDGE", "displayName": "Millennium Bridge, London, UK", "lng": -0.0984, "lat": 51.509, "title": false},
  {"name": "AKASHI", "displayName": "Akashi Kaikyo Bridge, Kobe, Japan", "lng": 135.0195, "lat": 34.6333, "title": false}
]
